[
  {
    "name": "﻿ABnet Cloud Services",
    "status": "Hiring",
    "type": "Healthcare",
    "location": {
      "lat": 32.1106866,
      "lng": 34.8408767
    }
  },
  {
    "name": "ABnet Communication",
    "status": "Hiring",
    "type": "\"saas",
    "location": {
      "lat": 32.1106866,
      "lng": 34.8408767
    }
  },
  {
    "name": "Ad-maven",
    "status": "Hiring",
    "type": "Marketing & Advertising",
    "location": null
  },
  {
    "name": "Adasky",
    "status": "Hiring",
    "type": "Automotive",
    "location": {
      "lat": 32.658776,
      "lng": 35.09861300000001
    }
  },
  {
    "name": "Adobe",
    "status": "Hiring Freeze",
    "type": "Business Software",
    "location": {
      "lat": 37.3309422,
      "lng": -121.8939077
    }
  },
  {
    "name": "AdScale",
    "status": "Hiring",
    "type": "saas",
    "location": {
      "lat": 32.6606141,
      "lng": 35.1062621
    }
  },
  {
    "name": "Afarsec",
    "status": "Hiring",
    "type": "cyber-security",
    "location": null
  },
  {
    "name": "Agoda",
    "status": "Hiring Freeze",
    "type": "Travel & Transportation",
    "location": null
  },
  {
    "name": "Akamai technologies",
    "status": "Hiring",
    "type": "cyber-security",
    "location": {
      "lat": 32.0731961,
      "lng": 34.7965837
    }
  },
  {
    "name": "AKEYLESS",
    "status": "Hiring",
    "type": "saas",
    "location": null
  },
  {
    "name": "Albert AI",
    "status": "Layoffs",
    "type": "Marketing & Advertising",
    "location": null
  },
  {
    "name": "Alibaba Machine Inteligence Israel Lab",
    "status": "Hiring",
    "type": "\"E-commerce",
    "location": null
  },
  {
    "name": "AllCloud",
    "status": "Hiring",
    "type": "saas",
    "location": {
      "lat": 40.75604010000001,
      "lng": -73.9741691
    }
  },
  {
    "name": "Allot ",
    "status": "Hiring",
    "type": "cyber-security",
    "location": null
  },
  {
    "name": "Amazon ",
    "status": "Hiring",
    "type": "Business Software",
    "location": {
      "lat": 42.4743194,
      "lng": -83.09352870000001
    }
  },
  {
    "name": "Ampiloospeech",
    "status": "Hiring",
    "type": "Healthcare",
    "location": {
      "lat": 32.8190408,
      "lng": 34.9998946
    }
  },
  {
    "name": "Anima",
    "status": "Hiring",
    "type": "Other",
    "location": null
  },
  {
    "name": "Ann- Reinvent the way we learn",
    "status": "Hiring",
    "type": " you should apply.\"",
    "location": null
  },
  {
    "name": "Antelliq Innovation Center",
    "status": "Hiring",
    "type": "Healthcare",
    "location": {
      "lat": 32.2798163,
      "lng": 34.8583076
    }
  },
  {
    "name": "Anthem IL",
    "status": "Hiring",
    "location": null
  },
  {
    "name": "הגדולות בעולם. הקימה מרכז פיתוח וחדשנות בתל אביב",
    "location": {
      "lat": 32.0852999,
      "lng": 34.78176759999999
    }
  },
  {
    "name": "מגייסים בקצב מהיר",
    "location": null
  },
  {
    "name": "FULLSTACK TL",
    "location": null
  },
  {
    "name": "DS TL",
    "location": null
  },
  {
    "name": "AI/DS Engineer \"",
    "status": "Healthcare",
    "type": "4/2/2020",
    "location": null
  },
  {
    "name": "Anyvision",
    "status": "Layoffs",
    "type": "Other",
    "location": {
      "lat": 32.007873,
      "lng": 34.8005599
    }
  },
  {
    "name": "AnyVision ",
    "status": "Layoffs",
    "type": "Other",
    "location": null
  },
  {
    "name": "Apester",
    "status": "Layoffs",
    "type": "Marketing & Advertising",
    "location": {
      "lat": 32.0656634,
      "lng": 34.7873095
    }
  },
  {
    "name": "Apple",
    "status": "Hiring",
    "type": "Consumer Tech",
    "location": null
  },
  {
    "name": "Appsflyer",
    "status": "Hiring",
    "type": "Marketing & Advertising",
    "location": {
      "lat": 32.1644335,
      "lng": 34.8108056
    }
  },
  {
    "name": "Aqua Security",
    "status": "Hiring",
    "type": "cyber-security",
    "location": {
      "lat": 32.0821928,
      "lng": 34.800973
    }
  },
  {
    "name": "Argus",
    "status": "Hiring",
    "type": "cyber-security",
    "location": {
      "lat": 32.0687798,
      "lng": 34.7942075
    }
  },
  {
    "name": "Armis",
    "status": "Hiring",
    "type": "cyber-security",
    "location": {
      "lat": 37.4451206,
      "lng": -122.1599252
    }
  },
  {
    "name": "Arpeely",
    "status": "Hiring",
    "type": "Marketing & Advertising",
    "location": {
      "lat": 32.0768528,
      "lng": 34.792631
    }
  },
  {
    "name": "Aspectiva",
    "status": "Hiring",
    "type": "E-commerce",
    "location": null
  },
  {
    "name": "AT&T",
    "status": "Hiring Freeze",
    "type": "\"Media & Entertainment",
    "location": {
      "lat": 31.9863579,
      "lng": 34.9117596
    }
  },
  {
    "name": "Atera ",
    "status": "Hiring",
    "type": "IT Infrastructure",
    "location": {
      "lat": 40.7169003,
      "lng": -74.0055631
    }
  },
  {
    "name": "Audioburst",
    "status": "Layoffs",
    "type": "Media & Entertainment",
    "location": {
      "lat": 32.0642227,
      "lng": 34.7745556
    }
  },
  {
    "name": "Augury",
    "status": "Hiring",
    "type": " it's the Key to Global Productivity. Join us to help make industrial machines keep on running!\"",
    "location": {
      "lat": 40.754589,
      "lng": -73.99087999999999
    }
  },
  {
    "name": "Aurora Labs",
    "status": "Hiring",
    "type": "Automotive",
    "location": null
  },
  {
    "name": "Autodesk",
    "status": "Hiring",
    "type": "Other",
    "location": {
      "lat": 32.0627884,
      "lng": 34.7714738
    }
  },
  {
    "name": "Autofleet",
    "status": "Hiring",
    "type": "\"Automotive",
    "location": {
      "lat": 32.0733094,
      "lng": 34.796228
    }
  },
  {
    "name": "Axon Vision",
    "status": "Hiring",
    "type": "Defense",
    "location": null
  },
  {
    "name": "Axonize",
    "status": "Hiring",
    "location": {
      "lat": 32.0869793,
      "lng": 34.8047275
    }
  },
  {
    "name": "מנהל מוצר\"",
    "status": "\"Business Software",
    "type": "Productivity Software\"",
    "location": null
  },
  {
    "name": "Bagira Systems",
    "status": "Hiring",
    "type": "Defense",
    "location": {
      "lat": 32.003317,
      "lng": 34.803024
    }
  },
  {
    "name": "Belocal Ltd",
    "status": "Hiring",
    "type": "IT Infrastructure",
    "location": {
      "lat": 32.1972102,
      "lng": 34.8838833
    }
  },
  {
    "name": "Better Chains",
    "status": "Hiring Freeze",
    "type": "saas",
    "location": null
  },
  {
    "name": "Better Impression",
    "status": "Hiring",
    "type": "Marketing & Advertising",
    "location": {
      "lat": 32.0843079,
      "lng": 34.7817756
    }
  },
  {
    "name": "Bidalgo",
    "status": "Hiring",
    "type": "Media & Entertainment",
    "location": {
      "lat": 32.0833871,
      "lng": 34.8037261
    }
  },
  {
    "name": "Bigabid",
    "status": "Hiring",
    "type": "Marketing & Advertising",
    "location": {
      "lat": 32.0623165,
      "lng": 34.7708617
    }
  },
  {
    "name": "BigPanda",
    "status": "Hiring",
    "type": "IT Infrastructure",
    "location": {
      "lat": 32.0679811,
      "lng": 34.7870719
    }
  },
  {
    "name": "Bizzabo",
    "status": "Layoffs",
    "type": "saas",
    "location": {
      "lat": 40.74495599999999,
      "lng": -73.989397
    }
  },
  {
    "name": "BlueSnap",
    "status": "Hiring Freeze",
    "type": "E-commerce",
    "location": {
      "lat": 42.3547248,
      "lng": -71.2624797
    }
  },
  {
    "name": "Bluevine ",
    "status": "Hiring",
    "type": "Financial Services",
    "location": {
      "lat": 37.4871395,
      "lng": -122.2320757
    }
  },
  {
    "name": "Bond (formerly known as TG-17)",
    "status": "Layoffs",
    "type": "Other",
    "location": null
  },
  {
    "name": "Booking.com",
    "status": "Hiring Freeze",
    "type": "Travel & Transportation",
    "location": {
      "lat": 31.7842959,
      "lng": 35.2285367
    }
  },
  {
    "name": "Brainlab",
    "status": "Hiring",
    "type": "Healthcare",
    "location": {
      "lat": 32.0974674,
      "lng": 34.848101
    }
  },
  {
    "name": "BRINGG",
    "status": "Hiring",
    "type": "saas",
    "location": {
      "lat": 42.0470668,
      "lng": -87.6805625
    }
  },
  {
    "name": "Brix Software Ltd",
    "status": "Hiring",
    "type": "Financial Services",
    "location": {
      "lat": 31.8009675,
      "lng": 35.2104483
    }
  },
  {
    "name": "BugSec",
    "status": "Layoffs",
    "type": "cyber-security",
    "location": {
      "lat": 31.9494145,
      "lng": 34.8045843
    }
  },
  {
    "name": "Buildots",
    "status": "Hiring",
    "type": "Business Software",
    "location": null
  },
  {
    "name": "BUYME",
    "status": "Layoffs",
    "type": "E-commerce",
    "location": null
  },
  {
    "name": "Camilyo",
    "status": "Hiring",
    "type": "saas",
    "location": {
      "lat": 32.109963,
      "lng": 34.840517
    }
  },
  {
    "name": "Capitolis",
    "status": "Hiring",
    "type": "Financial Services",
    "location": null
  },
  {
    "name": "Check Point",
    "status": "Hiring",
    "type": "cyber-security",
    "location": {
      "lat": 32.0697959,
      "lng": 34.7956374
    }
  },
  {
    "name": "Climacell",
    "status": "Layoffs",
    "type": "Energy",
    "location": {
      "lat": 42.3502782,
      "lng": -71.0497491
    }
  },
  {
    "name": "CloudAlly",
    "status": "Hiring",
    "type": "IT Infrastructure",
    "location": {
      "lat": 32.1980466,
      "lng": 34.8824398
    }
  },
  {
    "name": "Cloudinary",
    "status": "Hiring",
    "type": " Frontend team lead",
    "location": null
  },
  {
    "name": "Cobwebs",
    "status": "Layoffs",
    "type": "Other",
    "location": {
      "lat": 32.1602438,
      "lng": 34.8095785
    }
  },
  {
    "name": "Code Oasis",
    "status": "Layoffs",
    "type": "Other",
    "location": {
      "lat": 32.162469,
      "lng": 34.8075754
    }
  },
  {
    "name": "CodeValue",
    "status": "Hiring",
    "type": " DevOps",
    "location": {
      "lat": 32.6588215,
      "lng": 35.1020057
    }
  },
  {
    "name": "CommonGround ",
    "status": "Hiring",
    "type": " deep learning researchers",
    "location": {
      "lat": 36.0924723,
      "lng": -95.88959779999999
    }
  },
  {
    "name": "Comunix",
    "status": "Hiring",
    "type": "Media & Entertainment",
    "location": null
  },
  {
    "name": "Contentsqaure",
    "status": "Hiring",
    "type": "Business Software",
    "location": null
  },
  {
    "name": "Convizit ",
    "status": "Hiring",
    "type": "Other",
    "location": {
      "lat": 32.0684862,
      "lng": 34.7941454
    }
  },
  {
    "name": "Crazy Labs",
    "status": "Hiring",
    "type": "Media & Entertainment",
    "location": {
      "lat": 32.1111533,
      "lng": 34.839004
    }
  },
  {
    "name": "CreditStacks",
    "status": "Layoffs",
    "type": "Financial Services",
    "location": null
  },
  {
    "name": "Crossix",
    "status": "Hiring",
    "type": "Other",
    "location": {
      "lat": 40.75257999999999,
      "lng": -73.987898
    }
  },
  {
    "name": "Culture Trip",
    "status": "Layoffs",
    "type": "Travel & Transportation",
    "location": {
      "lat": 32.0634711,
      "lng": 34.7715572
    }
  },
  {
    "name": "Curv",
    "status": "Hiring",
    "type": "cyber-security",
    "location": {
      "lat": 40.7588534,
      "lng": -73.9750778
    }
  },
  {
    "name": "Cyberbit",
    "status": "Layoffs",
    "type": "cyber-security",
    "location": null
  },
  {
    "name": "Cybereason ",
    "status": "Hiring",
    "type": "cyber-security",
    "location": {
      "lat": 42.3494286,
      "lng": -71.0749733
    }
  },
  {
    "name": "Cybint",
    "status": "Hiring",
    "type": "cyber-security",
    "location": null
  },
  {
    "name": "CYMOTIVE",
    "status": "Hiring",
    "type": "\"Automotive",
    "location": {
      "lat": 32.0686076,
      "lng": 34.7939997
    }
  },
  {
    "name": "Cynet",
    "status": "Hiring",
    "type": "cyber-security",
    "location": {
      "lat": 31.9502782,
      "lng": 34.8027264
    }
  },
  {
    "name": "Cyolo",
    "status": "Hiring",
    "location": null
  },
  {
    "name": "Sr. Full Stack",
    "status": " Sr.DevOps",
    "type": "cyber-security",
    "location": null
  },
  {
    "name": "D-Fend Solutions",
    "status": "Hiring",
    "location": {
      "lat": 32.197589,
      "lng": 34.8811055
    }
  },
  {
    "name": "D-Fend Solutions is hiring with full power! Join us :-)\"",
    "status": "Defense",
    "type": "4/2/2020",
    "location": {
      "lat": 32.197589,
      "lng": 34.8811055
    }
  },
  {
    "name": "D-Fend Solutions",
    "status": "Hiring",
    "type": "cyber-security",
    "location": {
      "lat": 32.197589,
      "lng": 34.8811055
    }
  },
  {
    "name": "Dell",
    "status": "Hiring Freeze",
    "type": "IT Infrastructure",
    "location": {
      "lat": 32.787523,
      "lng": 34.9576742
    }
  },
  {
    "name": "DiA Imaging Analysis",
    "status": "Hiring",
    "type": "Healthcare",
    "location": null
  },
  {
    "name": "Diagnostic Robotics",
    "status": "Hiring",
    "type": "Healthcare",
    "location": null
  },
  {
    "name": "Direct Experts",
    "status": "Hiring",
    "type": "consulting & Services",
    "location": {
      "lat": 32.0529866,
      "lng": 34.8143051
    }
  },
  {
    "name": "DoiT",
    "status": "Hiring",
    "type": "consulting & Services",
    "location": {
      "lat": 32.072584,
      "lng": 34.788065
    }
  },
  {
    "name": "DoubleVerify",
    "status": "Hiring",
    "type": "Other",
    "location": null
  },
  {
    "name": "Duda",
    "status": "Hiring",
    "type": "Business Software",
    "location": null
  },
  {
    "name": "DynamicYield",
    "status": "Hiring",
    "location": {
      "lat": 32.0727773,
      "lng": 34.79492
    }
  },
  {
    "name": "https://grnh.se/413febe81\"",
    "status": "E-commerce",
    "type": "4/3/2020",
    "location": null
  },
  {
    "name": "Earnix",
    "status": "Hiring Freeze",
    "type": "Financial Services",
    "location": {
      "lat": 41.1354798,
      "lng": -73.3698881
    }
  },
  {
    "name": "ebay",
    "status": "Hiring",
    "type": "E-commerce",
    "location": {
      "lat": 32.2896125,
      "lng": 34.8629222
    }
  },
  {
    "name": "Effectivate",
    "status": "Hiring",
    "type": "",
    "location": {
      "lat": 32.0628798,
      "lng": 34.7778725
    }
  },
  {
    "name": "ואנשי מכירות\"",
    "status": "Healthcare",
    "type": "4/4/2020",
    "location": null
  },
  {
    "name": "eko",
    "status": "Hiring",
    "type": "Media & Entertainment",
    "location": null
  },
  {
    "name": "Elbit",
    "status": "Hiring Freeze",
    "type": "Defense",
    "location": {
      "lat": 32.7883208,
      "lng": 34.9617678
    }
  },
  {
    "name": "Elementor",
    "status": "Hiring",
    "type": "Other",
    "location": null
  },
  {
    "name": "env0",
    "status": "Hiring",
    "type": "Productivity Software",
    "location": null
  },
  {
    "name": "esaohr",
    "status": "Hiring",
    "type": "\"Consumer Services ",
    "location": null
  },
  {
    "name": "eToro",
    "status": "Hiring",
    "type": "Financial Services",
    "location": {
      "lat": 32.098391,
      "lng": 34.828088
    }
  },
  {
    "name": "ExposeBox ",
    "status": "Hiring",
    "type": "Marketing & Advertising",
    "location": null
  },
  {
    "name": "ezbob",
    "status": "Hiring Freeze",
    "type": "Financial Services",
    "location": null
  },
  {
    "name": "F5 networks ",
    "status": "Hiring",
    "type": "cyber-security",
    "location": {
      "lat": 40.758062,
      "lng": -73.97159500000001
    }
  },
  {
    "name": "Fabric (CommonSense Robotics)",
    "status": "Hiring",
    "type": "Other",
    "location": {
      "lat": 32.0621372,
      "lng": 34.7846265
    }
  },
  {
    "name": "Facebook",
    "status": "Hiring",
    "type": " for Business and data roles. \"",
    "location": {
      "lat": 32.0628623,
      "lng": 34.7714579
    }
  },
  {
    "name": "Facebook Tel-Aviv",
    "status": "Hiring",
    "type": "Consumer Tech",
    "location": {
      "lat": 32.0628623,
      "lng": 34.7714579
    }
  },
  {
    "name": "Facetrom",
    "status": "Hiring",
    "type": "Financial Services",
    "location": null
  },
  {
    "name": "Feedvisor",
    "status": "Layoffs",
    "type": "E-commerce",
    "location": {
      "lat": 32.082618,
      "lng": 34.801216
    }
  },
  {
    "name": "Fieldin",
    "status": "Layoffs",
    "type": "Other",
    "location": {
      "lat": 36.734177,
      "lng": -119.7788839
    }
  },
  {
    "name": "Fireblocks",
    "status": "Hiring",
    "type": "cyber-security",
    "location": {
      "lat": 40.7532218,
      "lng": -73.9892771
    }
  },
  {
    "name": "Firefly.ai",
    "status": "Hiring",
    "type": "saas",
    "location": {
      "lat": 32.1596062,
      "lng": 34.80714950000001
    }
  },
  {
    "name": "First",
    "status": "Hiring",
    "type": "Financial Services",
    "location": {
      "lat": 32.0854978,
      "lng": 34.7926393
    }
  },
  {
    "name": "Fiverr",
    "status": "Hiring",
    "type": "consulting & Services",
    "location": {
      "lat": 32.0732456,
      "lng": 34.7833867
    }
  },
  {
    "name": "Flipkart",
    "status": "Hiring",
    "type": "E-commerce",
    "location": null
  },
  {
    "name": "Flytrex ",
    "status": "Hiring",
    "type": "Other",
    "location": null
  },
  {
    "name": "Forcepoint",
    "status": "Hiring",
    "type": " תמיכה וניהול מוצר. \"",
    "location": null
  },
  {
    "name": "ForeScout ",
    "status": "Hiring",
    "type": "cyber-security",
    "location": {
      "lat": 37.409502,
      "lng": -121.954719
    }
  },
  {
    "name": "Foresight",
    "status": "Layoffs",
    "type": "Automotive",
    "location": null
  },
  {
    "name": "Forter",
    "status": "Hiring",
    "type": " Backend Engineers",
    "location": {
      "lat": 32.0730891,
      "lng": 34.7969849
    }
  },
  {
    "name": "Fortinet",
    "status": "Hiring",
    "type": "cyber-security",
    "location": {
      "lat": 32.0955018,
      "lng": 34.8469988
    }
  },
  {
    "name": "Freightos",
    "status": "Layoffs",
    "type": "E-commerce",
    "location": {
      "lat": 31.749742,
      "lng": 35.186457
    }
  },
  {
    "name": "Fundbox",
    "status": "Hiring Freeze",
    "type": "Financial Services",
    "location": {
      "lat": 37.792371,
      "lng": -122.4024732
    }
  },
  {
    "name": "Fyber ",
    "status": "Hiring",
    "type": "Marketing & Advertising",
    "location": {
      "lat": 37.7874248,
      "lng": -122.4009325
    }
  },
  {
    "name": "General Motors",
    "status": "Hiring",
    "type": "Automotive",
    "location": {
      "lat": 32.1659077,
      "lng": 34.81037680000001
    }
  },
  {
    "name": "Geneyx",
    "status": "Hiring",
    "location": {
      "lat": 32.11516,
      "lng": 34.842959
    }
  },
  {
    "name": "We are Geneyx (www.geneyx.com)",
    "status": " a newly formed startup that develops innovative biomedical genetic diagnostic systems on Azure/AWS cloud and on-premise for hospitals around the world.",
    "location": {
      "lat": 32.11516,
      "lng": 34.842959
    }
  },
  {
    "name": "Here are our  open positions:",
    "location": null
  },
  {
    "name": "-Sr. FS Web Developer (.NET)",
    "location": null
  },
  {
    "name": "-Team Leader- Data team (Python)",
    "location": null
  },
  {
    "name": "-DevOps Engineer",
    "location": {
      "lat": 31.2710795,
      "lng": 34.8352766
    }
  },
  {
    "name": "-S/W QA Engineer (Automatic)",
    "location": null
  },
  {
    "name": "",
    "location": null
  },
  {
    "name": " Lydia Mor| HR&Talent Acquisition Manager",
    "location": null
  },
  {
    "name": "email:Lydia@geneyx.com",
    "location": {
      "lat": 32.11516,
      "lng": 34.842959
    }
  },
  {
    "name": "https://geneyx.com/",
    "location": {
      "lat": 32.11516,
      "lng": 34.842959
    }
  },
  {
    "name": "",
    "location": null
  },
  {
    "name": "\"",
    "status": "Healthcare",
    "type": "4/1/2020",
    "location": {
      "lat": 38.9427117,
      "lng": -77.068381
    }
  },
  {
    "name": "Gett",
    "status": "Hiring",
    "type": "Travel & Transportation",
    "location": {
      "lat": 40.5911644,
      "lng": -74.0877136
    }
  },
  {
    "name": "Gigya-SAP",
    "status": "Hiring",
    "type": "Business Software",
    "location": null
  },
  {
    "name": "Glassbox digital",
    "status": "Hiring",
    "type": "saas",
    "location": {
      "lat": 32.1016566,
      "lng": 34.8671889
    }
  },
  {
    "name": "Gloat",
    "status": "Hiring",
    "type": "saas",
    "location": {
      "lat": 32.071376,
      "lng": 34.7945032
    }
  },
  {
    "name": "Gong",
    "status": "Hiring",
    "type": "saas",
    "location": null
  },
  {
    "name": "Google",
    "status": "Hiring",
    "type": "Business Software",
    "location": {
      "lat": 32.0700544,
      "lng": 34.7941211
    }
  },
  {
    "name": "GrubHub",
    "status": "Hiring Freeze",
    "type": "Food & Dining",
    "location": null
  },
  {
    "name": "Guardio",
    "status": "Hiring",
    "type": "cyber-security",
    "location": null
  },
  {
    "name": "GuardKnox",
    "status": "Hiring",
    "type": " מעבר לכך הכל כרגיל\"",
    "location": {
      "lat": 31.9289868,
      "lng": 34.8815519
    }
  },
  {
    "name": "Habana Labs",
    "status": "Hiring",
    "location": {
      "lat": 32.1095323,
      "lng": 34.8408234
    }
  },
  {
    "name": "Working from home full time",
    "status": " hiring software c++/python\"",
    "type": " Jobs@habana.ai",
    "location": null
  },
  {
    "name": "Hailo",
    "status": "Hiring",
    "type": "Other",
    "location": {
      "lat": 32.0684862,
      "lng": 34.7941454
    }
  },
  {
    "name": "Healthy",
    "status": "Hiring",
    "type": "Healthcare",
    "location": null
  },
  {
    "name": "Healthy.io",
    "status": "Hiring",
    "type": "Healthcare",
    "location": {
      "lat": 32.071483,
      "lng": 34.7820853
    }
  },
  {
    "name": "Herolo",
    "status": "Hiring",
    "type": "Business Software",
    "location": {
      "lat": 32.086952,
      "lng": 34.80157
    }
  },
  {
    "name": "HoneyBook",
    "status": "Hiring Freeze",
    "type": "Financial Services",
    "location": {
      "lat": 32.0750419,
      "lng": 34.7819586
    }
  },
  {
    "name": "HPE",
    "status": "Hiring",
    "type": "\"consulting & Services",
    "location": {
      "lat": 32.0273484,
      "lng": 34.8984425
    }
  },
  {
    "name": "Huuuge Games ",
    "status": "Hiring",
    "type": "Media & Entertainment",
    "location": null
  },
  {
    "name": "HyperCube",
    "status": "Hiring",
    "type": "saas",
    "location": null
  },
  {
    "name": "IBM",
    "status": "Hiring Freeze",
    "type": "Business Software",
    "location": {
      "lat": 32.1010874,
      "lng": 34.8491265
    }
  },
  {
    "name": "IBM ",
    "status": "Hiring",
    "type": "Other",
    "location": {
      "lat": 36.1512725,
      "lng": -95.9881365
    }
  },
  {
    "name": "Igentify",
    "status": "Hiring",
    "type": " Backend",
    "location": null
  },
  {
    "name": "Iguazio",
    "status": "Layoffs",
    "type": "Productivity Software",
    "location": {
      "lat": 32.1578022,
      "lng": 34.8079778
    }
  },
  {
    "name": "Imperva",
    "status": "Hiring",
    "type": " although some positions have been freeze.\"",
    "location": {
      "lat": 32.0729622,
      "lng": 34.7895273
    }
  },
  {
    "name": "Infinidat",
    "status": "Layoffs",
    "type": "Other",
    "location": {
      "lat": 42.3964963,
      "lng": -71.2586145
    }
  },
  {
    "name": "Inomize",
    "status": "Hiring",
    "location": {
      "lat": 32.2848195,
      "lng": 34.8720729
    }
  },
  {
    "name": "",
    "location": null
  },
  {
    "name": "ASIC Engineer",
    "location": null
  },
  {
    "name": "",
    "location": null
  },
  {
    "name": "FPGA Engineer",
    "location": null
  },
  {
    "name": "",
    "location": null
  },
  {
    "name": "Verification Engineer",
    "location": null
  },
  {
    "name": "",
    "location": null
  },
  {
    "name": "Analog Engineer",
    "location": null
  },
  {
    "name": "",
    "location": null
  },
  {
    "name": "Analog Layout",
    "location": null
  },
  {
    "name": "",
    "location": null
  },
  {
    "name": " ",
    "location": null
  },
  {
    "name": "",
    "location": null
  },
  {
    "name": "העדיפות כרגע רק למהנדסים מנוסים בכל המשרות שציינתי מינימום 3 שנות ניסיון.",
    "location": null
  },
  {
    "name": "",
    "location": null
  },
  {
    "name": "\"",
    "status": "Other",
    "type": "4/2/2020",
    "location": {
      "lat": 38.9427117,
      "lng": -77.068381
    }
  },
  {
    "name": "Intezer",
    "status": "Hiring",
    "type": "cyber-security",
    "location": {
      "lat": 32.0642807,
      "lng": 34.774554
    }
  },
  {
    "name": "IntSights ",
    "status": "Hiring",
    "type": "cyber-security",
    "location": {
      "lat": 40.7415317,
      "lng": -73.9966157
    }
  },
  {
    "name": "Investing.com",
    "status": "Hiring",
    "type": "Financial Services",
    "location": {
      "lat": 32.061711,
      "lng": 34.788543
    }
  },
  {
    "name": "ironSource",
    "status": "Hiring",
    "type": "Marketing & Advertising",
    "location": {
      "lat": 40.7274,
      "lng": -74.0051306
    }
  },
  {
    "name": "JFrog",
    "status": "Hiring",
    "type": "\"saas",
    "location": {
      "lat": 32.2881599,
      "lng": 34.8648924
    }
  },
  {
    "name": "Jolt",
    "status": "Hiring Freeze",
    "type": "Education Software",
    "location": {
      "lat": 32.051972,
      "lng": 34.7726364
    }
  },
  {
    "name": "Joonko",
    "status": "Hiring",
    "type": "Other",
    "location": null
  },
  {
    "name": "JoyTunes",
    "status": "Hiring",
    "type": " accelerating hiring\"",
    "location": {
      "lat": 32.0728222,
      "lng": 34.7890956
    }
  },
  {
    "name": "k health",
    "status": "Hiring",
    "type": "Healthcare",
    "location": null
  },
  {
    "name": "Kaltura",
    "status": "Hiring Freeze",
    "type": "Media & Entertainment",
    "location": {
      "lat": 40.73825129999999,
      "lng": -73.9881589
    }
  },
  {
    "name": "Kaymera",
    "status": "Hiring",
    "location": null
  },
  {
    "name": " למספר משרות -פיתוח",
    "status": " שיווק ועוד\"",
    "type": "https://www.linkedin.com/mwlite/in/shira-levinsky-a468529",
    "location": null
  },
  {
    "name": "Kenshoo",
    "status": "Hiring Freeze",
    "type": " also 10% salary reduction\"",
    "location": {
      "lat": 32.1096452,
      "lng": 34.841165
    }
  },
  {
    "name": "Kenshoo",
    "status": "Layoffs",
    "location": {
      "lat": 32.1096452,
      "lng": 34.841165
    }
  },
  {
    "name": "פיטורים של כ-40 עובדים\"",
    "status": "Marketing & Advertising",
    "type": "4/4/2020",
    "location": {
      "lat": 31.0733155,
      "lng": 34.8396061
    }
  },
  {
    "name": "Kindite",
    "status": "Hiring",
    "type": "cyber-security",
    "location": {
      "lat": 32.0705816,
      "lng": 34.7911905
    }
  },
  {
    "name": "Klear",
    "status": "Hiring",
    "type": "saas",
    "location": null
  },
  {
    "name": "Kueez",
    "status": "Hiring",
    "type": "Media & Entertainment",
    "location": null
  },
  {
    "name": "Lemonade ",
    "status": "Hiring",
    "type": "Other",
    "location": {
      "lat": 37.784994,
      "lng": -122.4034935
    }
  },
  {
    "name": "Lightricks",
    "status": "Hiring",
    "type": "Other",
    "location": {
      "lat": 31.767239,
      "lng": 35.19718599999999
    }
  },
  {
    "name": "Lingopie",
    "status": "Hiring",
    "type": " social media managers & community managers",
    "location": null
  },
  {
    "name": "Literally Media Ltd",
    "status": "Hiring",
    "type": "Media & Entertainment",
    "location": null
  },
  {
    "name": "Liveperson",
    "status": "Hiring",
    "type": "E-commerce",
    "location": {
      "lat": 32.197602,
      "lng": 34.8821015
    }
  },
  {
    "name": "Logmein",
    "status": "Hiring",
    "type": "Productivity Software",
    "location": null
  },
  {
    "name": "Loris.ai",
    "status": "Hiring",
    "type": "Business Software",
    "location": null
  },
  {
    "name": "LSports ",
    "status": "Hiring",
    "type": "Other",
    "location": {
      "lat": 37.2241234,
      "lng": -95.7406026
    }
  },
  {
    "name": "Lumenis",
    "status": "Layoffs",
    "type": "Other",
    "location": {
      "lat": 37.3716798,
      "lng": -121.9258282
    }
  },
  {
    "name": "Lusha.co",
    "status": "Hiring",
    "type": "saas",
    "location": null
  },
  {
    "name": "Matific",
    "status": "Hiring",
    "type": "Education Software",
    "location": null
  },
  {
    "name": "Matrix",
    "status": "Layoffs",
    "type": " לגבי גיוס - לא ברור כרגע\"",
    "location": null
  },
  {
    "name": "MediaGate",
    "status": "Hiring",
    "type": " Ruby/Pyton ",
    "location": {
      "lat": 32.0918614,
      "lng": 34.7808939
    }
  },
  {
    "name": "Medint",
    "status": "Hiring",
    "location": null
  },
  {
    "name": "מחפשת נשים בעלות רקע רפואי ברמה גבוהה (סטודנטיות לרפואה שנה שישית ומעלה",
    "status": " רופאות",
    "type": " למשרת תרגום רפואי בחברת מדינט",
    "location": null
  },
  {
    "name": "Meetinkz",
    "status": "Hiring",
    "type": "saas",
    "location": null
  },
  {
    "name": "Melio",
    "status": "Hiring",
    "type": "Financial Services",
    "location": {
      "lat": 32.0707998,
      "lng": 34.7908347
    }
  },
  {
    "name": "Mellanox ",
    "status": "Hiring",
    "type": "Communications",
    "location": {
      "lat": 37.3789035,
      "lng": -121.9874065
    }
  },
  {
    "name": "Merlinx",
    "status": "Hiring",
    "type": "cyber-security",
    "location": {
      "lat": 32.1587141,
      "lng": 34.8072515
    }
  },
  {
    "name": "Micro Focus",
    "status": "Hiring",
    "type": "Business Software",
    "location": {
      "lat": 32.0280093,
      "lng": 34.8975062
    }
  },
  {
    "name": "Microsoft",
    "status": "Hiring",
    "type": " DevOPs. SRE and more\"",
    "location": {
      "lat": 32.1579889,
      "lng": 34.8085177
    }
  },
  {
    "name": "Mobileye",
    "status": "Hiring",
    "type": "Automotive",
    "location": {
      "lat": 31.80313,
      "lng": 35.212711
    }
  },
  {
    "name": "Monday",
    "status": "Hiring",
    "type": "Business Software",
    "location": {
      "lat": 32.0637436,
      "lng": 34.781455
    }
  },
  {
    "name": "MoonActive",
    "status": "Hiring",
    "type": "Media & Entertainment",
    "location": {
      "lat": 32.0638792,
      "lng": 34.779878
    }
  },
  {
    "name": "Moovit",
    "status": "Hiring",
    "type": "saas",
    "location": {
      "lat": 31.9177493,
      "lng": 34.8042077
    }
  },
  {
    "name": "Nayax",
    "status": "Layoffs",
    "type": "Productivity Software",
    "location": {
      "lat": 32.1091909,
      "lng": 34.837136
    }
  },
  {
    "name": "NetoMedia",
    "status": "Hiring",
    "location": null
  },
  {
    "name": "Right now",
    "status": " everyone works from home.\"",
    "type": "Other\"",
    "location": null
  },
  {
    "name": "Nexar",
    "status": "Layoffs",
    "type": "Automotive",
    "location": {
      "lat": 40.7273304,
      "lng": -74.0059146
    }
  },
  {
    "name": "Nice",
    "status": "Hiring",
    "type": "saas",
    "location": null
  },
  {
    "name": "NoBiggie",
    "status": "Hiring Freeze",
    "type": "Consumer Goods",
    "location": {
      "lat": 32.0794521,
      "lng": 34.7796448
    }
  },
  {
    "name": "Nokia",
    "status": "Hiring",
    "type": "Communications",
    "location": {
      "lat": 32.1616876,
      "lng": 34.9339056
    }
  },
  {
    "name": "Novarize",
    "status": "Layoffs",
    "type": "E-commerce",
    "location": null
  },
  {
    "name": "NSO",
    "status": "Hiring Freeze",
    "type": "cyber-security",
    "location": null
  },
  {
    "name": "Okiano",
    "status": "Hiring",
    "type": "E-commerce",
    "location": {
      "lat": 32.0920326,
      "lng": 34.8389072
    }
  },
  {
    "name": "Omnisys",
    "status": "Hiring",
    "type": "Defense",
    "location": {
      "lat": 32.1067847,
      "lng": 34.9689407
    }
  },
  {
    "name": "oolo",
    "status": "Hiring",
    "type": "saas",
    "location": {
      "lat": 32.1971151,
      "lng": 34.8839806
    }
  },
  {
    "name": "Optima Design Automation",
    "status": "Hiring",
    "type": "Automotive",
    "location": {
      "lat": 32.6808195,
      "lng": 35.2923995
    }
  },
  {
    "name": "Oracle ",
    "status": "Hiring Freeze",
    "type": "cyber-security",
    "location": {
      "lat": 38.9326984,
      "lng": -94.6919975
    }
  },
  {
    "name": "OranBit",
    "status": "Hiring",
    "type": "Other",
    "location": {
      "lat": 32.131924,
      "lng": 34.99081
    }
  },
  {
    "name": "OranTech",
    "status": "Hiring",
    "type": "Other",
    "location": null
  },
  {
    "name": "Orbotech",
    "status": "Hiring Freeze",
    "type": "Manufacturing",
    "location": {
      "lat": 31.8878767,
      "lng": 34.7359885
    }
  },
  {
    "name": "Overwolf ",
    "status": "Hiring",
    "type": "Media & Entertainment",
    "location": null
  },
  {
    "name": "OwnBackup",
    "status": "Hiring",
    "type": " Senior Product Manager",
    "location": {
      "lat": 40.8983836,
      "lng": -73.9414616
    }
  },
  {
    "name": "\"",
    "status": "saas",
    "type": "4/2/2020",
    "location": {
      "lat": 38.9427117,
      "lng": -77.068381
    }
  },
  {
    "name": "Pagaya",
    "status": "Hiring",
    "type": "Financial Services",
    "location": {
      "lat": 40.7612727,
      "lng": -73.9694526
    }
  },
  {
    "name": "Palo Alto Networks",
    "status": "Hiring",
    "type": "Business Software",
    "location": {
      "lat": 32.0688581,
      "lng": 34.7940206
    }
  },
  {
    "name": "Panaya",
    "status": "Hiring",
    "type": "Business Software",
    "location": {
      "lat": 40.909039,
      "lng": -74.03376000000002
    }
  },
  {
    "name": "Papaya Global",
    "status": "Hiring",
    "type": "saas",
    "location": {
      "lat": 32.0727773,
      "lng": 34.79492
    }
  },
  {
    "name": "PayKey",
    "status": "Hiring",
    "type": "Financial Services",
    "location": null
  },
  {
    "name": "Payoneer",
    "status": "Hiring Freeze",
    "type": "Financial Services",
    "location": {
      "lat": 32.0960768,
      "lng": 34.8497757
    }
  },
  {
    "name": "PayPal",
    "status": "Hiring",
    "type": "Financial Services",
    "location": {
      "lat": 32.0700341,
      "lng": 34.7939794
    }
  },
  {
    "name": "Peer39",
    "status": "Hiring",
    "type": "Marketing & Advertising",
    "location": {
      "lat": 40.7621028,
      "lng": -73.9846448
    }
  },
  {
    "name": "Pendo",
    "status": "Hiring",
    "location": {
      "lat": 35.7787456,
      "lng": -78.63969449999999
    }
  },
  {
    "name": "Yes",
    "status": " we are continuing to grow our team! We are lucky to be in a position during these uncertain times to help those that might not be as fortunate.",
    "location": null
  },
  {
    "name": "Let’s spread some product love.❤️\"",
    "status": "saas",
    "type": "3/31/2020",
    "location": null
  },
  {
    "name": "Perforce",
    "status": "Hiring Freeze",
    "type": "Financial Services",
    "location": null
  },
  {
    "name": "Perion",
    "status": "Hiring",
    "type": "Marketing & Advertising",
    "location": {
      "lat": 32.0077569,
      "lng": 34.8006392
    }
  },
  {
    "name": "Personetics",
    "status": "Layoffs",
    "type": "Financial Services",
    "location": {
      "lat": 32.080198,
      "lng": 34.799507
    }
  },
  {
    "name": "Philips",
    "status": "Hiring",
    "type": "Healthcare",
    "location": null
  },
  {
    "name": "Pick a Pier",
    "status": "Hiring",
    "type": "Financial Services",
    "location": {
      "lat": 32.0727773,
      "lng": 34.79492
    }
  },
  {
    "name": "Plarium",
    "status": "Hiring",
    "type": "Media & Entertainment",
    "location": {
      "lat": 32.1607288,
      "lng": 34.81006199999999
    }
  },
  {
    "name": "Playstudios",
    "status": "Hiring",
    "type": "Media & Entertainment",
    "location": {
      "lat": 36.1885721,
      "lng": -115.3155206
    }
  },
  {
    "name": "Playtech",
    "status": "Hiring Freeze",
    "type": "Media & Entertainment",
    "location": {
      "lat": 32.0718027,
      "lng": 34.7890235
    }
  },
  {
    "name": "Playtika",
    "status": "Hiring",
    "type": "Media & Entertainment",
    "location": null
  },
  {
    "name": "Plus500",
    "status": "Hiring",
    "type": "Financial Services",
    "location": null
  },
  {
    "name": "Preempt",
    "status": "Hiring",
    "type": "cyber-security",
    "location": null
  },
  {
    "name": "Productive Labs",
    "status": "Hiring",
    "location": null
  },
  {
    "name": "- UI designers",
    "location": null
  },
  {
    "name": "Ability to work remotely is required.",
    "location": null
  },
  {
    "name": "\"",
    "status": "Productivity Software",
    "type": "3/31/2020",
    "location": {
      "lat": 38.9427117,
      "lng": -77.068381
    }
  },
  {
    "name": "Proofpoint",
    "status": "Hiring",
    "type": "cyber-security",
    "location": {
      "lat": 32.1597388,
      "lng": 34.8077781
    }
  },
  {
    "name": "PubPlus",
    "status": "Layoffs",
    "type": "Media & Entertainment",
    "location": null
  },
  {
    "name": "Qualcomm ",
    "status": "Hiring",
    "type": " verification) SW",
    "location": {
      "lat": 32.8942284,
      "lng": -117.2037093
    }
  },
  {
    "name": "Qualitest Group",
    "status": "Hiring",
    "type": "Other",
    "location": {
      "lat": 32.0975549,
      "lng": 34.8547617
    }
  },
  {
    "name": "Radware",
    "status": "Hiring",
    "type": "cyber-security",
    "location": {
      "lat": 41.0818138,
      "lng": -74.157947
    }
  },
  {
    "name": "Razor Labs",
    "status": "Hiring",
    "type": "\"Productivity Software",
    "location": {
      "lat": 50.041797,
      "lng": -97.01172799999999
    }
  },
  {
    "name": "Riskified",
    "status": "Hiring",
    "type": "E-commerce",
    "location": {
      "lat": 32.0659135,
      "lng": 34.7688055
    }
  },
  {
    "name": "Rivery",
    "status": "Hiring",
    "type": "saas",
    "location": {
      "lat": 40.7532218,
      "lng": -73.9892771
    }
  },
  {
    "name": "Roundforest",
    "status": "Layoffs",
    "type": "Other",
    "location": {
      "lat": 31.78737,
      "lng": 35.1847569
    }
  },
  {
    "name": "Salesforce",
    "status": "Hiring",
    "type": "Business Software",
    "location": {
      "lat": 32.0849219,
      "lng": 34.8004066
    }
  },
  {
    "name": "Samsung Israel R&D Center (SIRC)",
    "status": "Hiring",
    "type": "Other",
    "location": null
  },
  {
    "name": "SAP",
    "status": "Hiring",
    "type": " sales etc\"",
    "location": {
      "lat": 32.201633,
      "lng": 34.8824556
    }
  },
  {
    "name": "Sapiens",
    "status": "Hiring Freeze",
    "location": {
      "lat": 40.6536485,
      "lng": -75.4047751
    }
  },
  {
    "name": "רוב העובדים שהוצאו לחל\"\"ת לתקופה של חודש.",
    "location": null
  },
  {
    "name": "נחנו בהקפאת גיוסים כמעט גורפת ומספר מצומצם של משרות הכרחיות נשארו פתוחות במספר מדינות (גם ישראל)\"",
    "status": "Financial Services",
    "type": "4/1/2020",
    "location": null
  },
  {
    "name": "SAR Technologies",
    "status": "Hiring",
    "type": "Financial Services",
    "location": {
      "lat": 32.1627046,
      "lng": 34.8073454
    }
  },
  {
    "name": "Satori Cyber",
    "status": "Hiring",
    "type": "cyber-security",
    "location": {
      "lat": 32.0727773,
      "lng": 34.79492
    }
  },
  {
    "name": "SciPlay",
    "status": "Hiring",
    "type": "Media & Entertainment",
    "location": {
      "lat": 30.431474,
      "lng": -97.7591125
    }
  },
  {
    "name": "Security Dam",
    "status": "Hiring Freeze",
    "type": "cyber-security",
    "location": null
  },
  {
    "name": "Selina",
    "status": "Layoffs",
    "type": "Travel & Transportation",
    "location": {
      "lat": 32.060074,
      "lng": 34.767094
    }
  },
  {
    "name": "Sentinelone ",
    "status": "Hiring",
    "type": "Defense",
    "location": {
      "lat": 37.4028406,
      "lng": -122.0493474
    }
  },
  {
    "name": "ServiceNow",
    "status": "Hiring",
    "type": "saas",
    "location": {
      "lat": 32.1012849,
      "lng": 34.8616707
    }
  },
  {
    "name": "ShapeShift Gaming",
    "status": "Hiring",
    "type": "Media & Entertainment",
    "location": null
  },
  {
    "name": "Shopic",
    "status": "Hiring",
    "type": "Retail",
    "location": {
      "lat": 32.0750419,
      "lng": 34.7819586
    }
  },
  {
    "name": "Shutterfly",
    "status": "Hiring",
    "type": "E-commerce",
    "location": {
      "lat": 32.8166834,
      "lng": 35.0011225
    }
  },
  {
    "name": "Silverfort",
    "status": "Hiring",
    "type": "cyber-security",
    "location": {
      "lat": 32.0701138,
      "lng": 34.786562
    }
  },
  {
    "name": "Simbionix - 3D Systems",
    "status": "Layoffs",
    "type": "Healthcare",
    "location": {
      "lat": 39.6212064,
      "lng": -105.148516
    }
  },
  {
    "name": "similarweb",
    "status": "Hiring Freeze",
    "type": "Other",
    "location": {
      "lat": 32.071803,
      "lng": 34.789024
    }
  },
  {
    "name": "Simplex ",
    "status": "Hiring",
    "location": {
      "lat": 41.8198611,
      "lng": -87.95627410000002
    }
  },
  {
    "name": "Product manager",
    "location": null
  },
  {
    "name": "\"",
    "status": "Financial Services",
    "type": "4/2/2020",
    "location": {
      "lat": 38.9427117,
      "lng": -77.068381
    }
  },
  {
    "name": "Simpo",
    "status": "Hiring",
    "type": "Business Software",
    "location": null
  },
  {
    "name": "Sixgill",
    "status": "Hiring",
    "type": "cyber-security",
    "location": {
      "lat": 32.2901651,
      "lng": 34.8638694
    }
  },
  {
    "name": "Skilled",
    "status": "Hiring",
    "type": "consulting & Services",
    "location": null
  },
  {
    "name": "Solaredge",
    "status": "Hiring Freeze",
    "type": "Energy",
    "location": {
      "lat": 32.1665605,
      "lng": 34.8119188
    }
  },
  {
    "name": "Soluto",
    "status": "Hiring",
    "type": " Developers",
    "location": {
      "lat": 32.0640396,
      "lng": 34.7741631
    }
  },
  {
    "name": "Source Defense",
    "status": "Hiring",
    "type": "cyber-security",
    "location": {
      "lat": 32.10651,
      "lng": 34.969416
    }
  },
  {
    "name": "Spot",
    "status": "Hiring",
    "location": {
      "lat": 31.046051,
      "lng": 34.851612
    }
  },
  {
    "name": "מגייסים כרגיל\"",
    "status": "IT Infrastructure",
    "type": "4/1/2020",
    "location": null
  },
  {
    "name": "Spot.IM",
    "status": "Hiring",
    "type": "Media & Entertainment",
    "location": {
      "lat": 40.7229181,
      "lng": -73.9993369
    }
  },
  {
    "name": "SQream",
    "status": "Hiring",
    "type": "IT Infrastructure",
    "location": {
      "lat": 32.068486,
      "lng": 34.794145
    }
  },
  {
    "name": "Stampli",
    "status": "Hiring",
    "type": "saas",
    "location": {
      "lat": 37.393762,
      "lng": -122.0785886
    }
  },
  {
    "name": "STEPS",
    "status": "Hiring",
    "type": "Consumer Tech",
    "location": null
  },
  {
    "name": "StoreMaven",
    "status": "Hiring",
    "type": " no CV needed. \"",
    "location": {
      "lat": 32.0526054,
      "lng": 34.7689773
    }
  },
  {
    "name": "SundaySky",
    "status": "Hiring",
    "location": {
      "lat": 32.1085433,
      "lng": 34.8383234
    }
  },
  {
    "name": "",
    "location": null
  },
  {
    "name": "GPU Expert - https://sundaysky.com/company/careers/?position=34.61B\"",
    "status": "Marketing & Advertising",
    "type": "4/1/2020",
    "location": null
  },
  {
    "name": "Sygnia",
    "status": "Hiring",
    "type": "cyber-security",
    "location": {
      "lat": 40.7589074,
      "lng": -73.97529970000001
    }
  },
  {
    "name": "Symbolab",
    "status": "Hiring",
    "type": "Education Software",
    "location": null
  },
  {
    "name": "Synamedia",
    "status": "Hiring",
    "type": "Media & Entertainment",
    "location": {
      "lat": 31.8019573,
      "lng": 35.2078476
    }
  },
  {
    "name": "Syte.ai",
    "status": "Hiring Freeze",
    "type": "E-commerce",
    "location": null
  },
  {
    "name": "Taboola",
    "status": "Hiring Freeze",
    "type": "Other",
    "location": {
      "lat": 32.0824155,
      "lng": 34.8013884
    }
  },
  {
    "name": "TailorMed",
    "status": "Hiring",
    "location": {
      "lat": 32.1980451,
      "lng": 34.8824211
    }
  },
  {
    "name": "SW QA manual\"",
    "status": "Healthcare",
    "type": "4/1/2020",
    "location": null
  },
  {
    "name": "TandemG  ",
    "status": "Hiring",
    "location": {
      "lat": 31.9696505,
      "lng": 34.8985183
    }
  },
  {
    "name": "",
    "location": null
  },
  {
    "name": "C\\C++ developer",
    "location": null
  },
  {
    "name": "",
    "location": null
  },
  {
    "name": "Embedded developer",
    "location": null
  },
  {
    "name": "",
    "location": null
  },
  {
    "name": "Embedded Linux developer",
    "location": null
  },
  {
    "name": "",
    "location": null
  },
  {
    "name": "Embedded Linux Kernel Team Leader",
    "location": null
  },
  {
    "name": "\"",
    "status": "Other",
    "type": "4/1/2020",
    "location": {
      "lat": 38.9427117,
      "lng": -77.068381
    }
  },
  {
    "name": "Tap Mobile",
    "status": "Hiring",
    "type": "Business Software",
    "location": {
      "lat": 31.2746294,
      "lng": 34.8346277
    }
  },
  {
    "name": "Tatch Inc.",
    "status": "Hiring",
    "type": "\"Healthcare",
    "location": null
  },
  {
    "name": "TechSee",
    "status": "Hiring Freeze",
    "type": "\"Consumer Services ",
    "location": null
  },
  {
    "name": "TestM Veesto",
    "status": "Layoffs",
    "type": "saas",
    "location": {
      "lat": 32.1110475,
      "lng": 34.8411716
    }
  },
  {
    "name": "Texas Instruments ",
    "status": "Hiring",
    "type": "Consumer Tech",
    "location": {
      "lat": 33.5646836,
      "lng": -96.60750349999999
    }
  },
  {
    "name": "ThetaRay ",
    "status": "Layoffs",
    "type": " הוצאה לחל\"\"ת של כרבע חברה\"",
    "location": null
  },
  {
    "name": "Tikal knowledge",
    "status": "Hiring",
    "type": "Consumer Tech",
    "location": {
      "lat": 32.1154284,
      "lng": 34.8443387
    }
  },
  {
    "name": "tiplati",
    "status": "Hiring Freeze",
    "type": "Financial Services",
    "location": null
  },
  {
    "name": "Toga Networks",
    "status": "Hiring",
    "type": "Communications",
    "location": {
      "lat": 32.1332123,
      "lng": 34.8971281
    }
  },
  {
    "name": "Tomia",
    "status": "Hiring Freeze",
    "type": "Communications",
    "location": {
      "lat": 32.1954139,
      "lng": 34.88502400000001
    }
  },
  {
    "name": "Tonkean",
    "status": "Hiring",
    "type": "saas",
    "location": null
  },
  {
    "name": "Traffical",
    "status": "Hiring",
    "type": "\"Financial Services",
    "location": {
      "lat": 31.046051,
      "lng": 34.851612
    }
  },
  {
    "name": "Transmit Security",
    "status": "Hiring",
    "type": "cyber-security",
    "location": null
  },
  {
    "name": "Trax Retail",
    "status": "Hiring Freeze",
    "type": "Retail",
    "location": {
      "lat": 33.9901532,
      "lng": -84.0850305
    }
  },
  {
    "name": "TriEye",
    "status": "Hiring",
    "type": "Automotive",
    "location": {
      "lat": 32.0685038,
      "lng": 34.7941301
    }
  },
  {
    "name": "Tyto Care",
    "status": "Hiring",
    "location": null
  },
  {
    "name": "Video infrastructure engineer ",
    "location": null
  },
  {
    "name": "HW engineer\"",
    "status": "Healthcare",
    "type": "4/1/2020",
    "location": null
  },
  {
    "name": "UI human factors engineering",
    "status": "Hiring",
    "type": "consulting & Services",
    "location": null
  },
  {
    "name": "Ultra",
    "status": "Hiring",
    "location": null
  },
  {
    "name": "Marketing \"",
    "status": "cyber-security",
    "type": "4/1/2020",
    "location": {
      "lat": 32.1065799,
      "lng": 34.8341559
    }
  },
  {
    "name": "UVeye",
    "status": "Hiring",
    "type": " אם זאת ישנם עובדים שיצאו לחל״תים ספציפיים ",
    "location": {
      "lat": 32.0648243,
      "lng": 34.795682
    }
  },
  {
    "name": "וקיצוץ זמני לחודשיים",
    "location": null
  },
  {
    "name": "",
    "location": null
  },
  {
    "name": "נכון להיום לא מפטרים אף אחד.\"",
    "status": "Productivity Software",
    "type": "4/2/2020",
    "location": null
  },
  {
    "name": "Valid network",
    "status": "Hiring",
    "type": "cyber-security",
    "location": null
  },
  {
    "name": "Varada",
    "status": "Hiring",
    "type": " להפך אנחנו מתחילים להגדיל את  כמות הגיוסים\"",
    "location": {
      "lat": 32.0881749,
      "lng": 34.80255650000001
    }
  },
  {
    "name": "Vast Data",
    "status": "Hiring",
    "type": "IT Infrastructure",
    "location": {
      "lat": 32.1040489,
      "lng": 34.8083335
    }
  },
  {
    "name": "Vayyar",
    "status": "Hiring",
    "type": "Automotive",
    "location": {
      "lat": 32.0273249,
      "lng": 34.8947856
    }
  },
  {
    "name": "Verizon media",
    "status": "Hiring Freeze",
    "type": "Marketing & Advertising",
    "location": {
      "lat": 32.0824635,
      "lng": 34.8013545
    }
  },
  {
    "name": "Viber",
    "status": "Hiring",
    "type": "Communications",
    "location": null
  },
  {
    "name": "VO (viaccess-orca)",
    "status": "Hiring",
    "type": "Media & Entertainment",
    "location": null
  },
  {
    "name": "Voca.ai",
    "status": "Hiring",
    "location": null
  },
  {
    "name": "כיום אנחנו מגייסים ל3 משרות:",
    "location": null
  },
  {
    "name": "VP R&D",
    "location": null
  },
  {
    "name": "TECH LEAD",
    "location": {
      "lat": 32.2179725,
      "lng": 34.9825049
    }
  },
  {
    "name": "DATA SCIENTIST",
    "location": null
  },
  {
    "name": "\"",
    "status": "Business Software",
    "type": "4/2/2020",
    "location": {
      "lat": 38.9427117,
      "lng": -77.068381
    }
  },
  {
    "name": "Vonage ",
    "status": "Hiring",
    "type": "Communications",
    "location": {
      "lat": 33.913583,
      "lng": -84.4610794
    }
  },
  {
    "name": "Vulcan Cyber",
    "status": "Hiring",
    "type": "cyber-security",
    "location": null
  },
  {
    "name": "WalkMe ",
    "status": "Hiring Freeze",
    "type": "saas",
    "location": {
      "lat": 35.773326,
      "lng": -78.639063
    }
  },
  {
    "name": "Waterfall-Security",
    "status": "Hiring",
    "type": "cyber-security",
    "location": {
      "lat": 32.1086725,
      "lng": 34.96877240000001
    }
  },
  {
    "name": "Waycare",
    "status": "Hiring",
    "type": "saas",
    "location": {
      "lat": 32.069373,
      "lng": 34.790707
    }
  },
  {
    "name": "webpals",
    "status": "Hiring",
    "type": "Marketing & Advertising",
    "location": {
      "lat": 32.108778,
      "lng": 34.838631
    }
  },
  {
    "name": "Western Digital ",
    "status": "Hiring",
    "type": "IT Infrastructure",
    "location": {
      "lat": 26.3970576,
      "lng": -80.0951324
    }
  },
  {
    "name": "Wix",
    "status": "Hiring",
    "type": "saas",
    "location": {
      "lat": 32.0972441,
      "lng": 34.7742615
    }
  },
  {
    "name": "xscode",
    "status": "Hiring",
    "type": "Business Software",
    "location": null
  },
  {
    "name": "xtend",
    "status": "Hiring",
    "type": "Travel & Transportation",
    "location": null
  },
  {
    "name": "Y-tech",
    "status": "Hiring",
    "type": "IT Infrastructure",
    "location": {
      "lat": 32.106263,
      "lng": 34.968374
    }
  },
  {
    "name": "YL Ventures",
    "status": "Hiring",
    "type": "Other",
    "location": {
      "lat": 32.0629104,
      "lng": 34.7711743
    }
  },
  {
    "name": "Yotpo",
    "status": "Hiring",
    "type": "saas",
    "location": {
      "lat": 32.0634646,
      "lng": 34.7812262
    }
  },
  {
    "name": "zadara",
    "status": "Hiring Freeze",
    "type": "saas",
    "location": {
      "lat": 33.6386371,
      "lng": -117.734106
    }
  },
  {
    "name": "Zeitgold",
    "status": "Hiring Freeze",
    "type": "Financial Services",
    "location": {
      "lat": 32.0704442,
      "lng": 34.7870989
    }
  },
  {
    "name": "Zero Networks",
    "status": "Hiring",
    "type": "cyber-security",
    "location": null
  },
  {
    "name": "Zerto",
    "status": "Layoffs",
    "type": "Other",
    "location": {
      "lat": 32.1620903,
      "lng": 34.8085697
    }
  },
  {
    "name": "ZES - Zero Energy Solutions",
    "status": "Hiring",
    "location": {
      "lat": 32.0940677,
      "lng": 34.8232383
    }
  },
  {
    "name": "\"",
    "status": "Energy",
    "type": "4/2/2020",
    "location": {
      "lat": 38.9427117,
      "lng": -77.068381
    }
  },
  {
    "name": "בנק דיסקונט - חטיבת הדיגיטל",
    "status": "Hiring",
    "type": " data scientist",
    "location": null
  },
  {
    "name": "",
    "location": null
  }
]
